[
  {
  "longitude": 17.046580,
  "latitude": 51.114181,
  "eventsName": "Katedra św. Jana Chrzciciela",
  "category": "Koncerty",
  "description": "Katolickie Radio Rodzina zaprasza na tradycyjny koncert",
  "photo": ""
  },
  {
    "longitude": 17.026330,
    "latitude": 51.107070,
    "eventsName": "Jazztopad 2019",
    "category": "Koncerty",
    "description": "Jazztopad to cenione na świecie wydarzenie poświęcone muzyce jazzowej",
    "photo": ""
  },
  {
    "longitude": 17.026330,
    "latitude": 51.107070,
    "eventsName": "An Evening with Pat Metheny",
    "category": "Koncerty",
    "description": "Good Taste Production oraz Jazztopad Festival zapraszają na koncert",
    "photo": ""
  },
  {
    "longitude": 17.026330,
    "latitude": 51.107070,
    "eventsName": "Wystawa: Moda na Cranacha",
    "category": "Wystawy",
    "description": "Wystawa ukazująca malarstwo doby Reformacji ",
    "photo": ""
  },
  {
    "longitude": 17.077235,
    "latitude": 51.107113,
    "eventsName": "Koncert Muzyki Filmowej",
    "category": "Koncerty",
    "description": "Po ogromnym sukcesie pierwszej edycji „Koncert Muzyki Filmowej”abriel Fleszar",
    "photo": ""
  },
  {
    "longitude": 17.077235,
    "latitude": 51.107113,
    "eventsName": "Panorama Plastyczna Dawnego Lwowa",
    "category": "Wystawy",
    "description": "W specjalnie zaaranżowanej  przestrzeni  Hali Stulecia",
    "photo": ""
  },
  {
    "longitude": 17.077235,
    "latitude": 51.107113,
    "eventsName": "Muzeum Teatru",
    "category": "Wystawy",
    "description": "29 marca otwarto nową przestrzeń kulturalna – Muzeum Teatru im. Henryka Tomaszewskiego",
    "photo": ""
  },
  {
    "longitude": 16.994816,
    "latitude": 51.072762,
    "eventsName": "Mikołajki w Klubodzieciarni",
    "category": "Imprezy okolicznościowe",
    "description": "Organizatorzy zapraszają na zabawę mikołajkową ",
    "photo": ""
  },
  {
  "longitude": 16.957719,
  "latitude": 51.045913,
  "eventsName": "Mikołajki w Loopy's World",
  "category": "Imprezy okolicznościowe",
  "description": "Grudzień w Loopy’s World to dni radości i zabawy ",
  "photo": ""
},
  {
    "longitude": 16.995183,
    "latitude": 51.067024,
    "eventsName": "Mikołajki w FOKSie",
    "category": "Imprezy okolicznościowe",
    "description": "Spotkanie z prawdziwym św. Mikołajem",
    "photo": ""
  },
  {
    "longitude": 17.005200,
    "latitude": 51.113133,
    "eventsName": "TIFF Festival",
    "category": "Festiwal",
    "description": "TIFF Festival powstał w 2011 roku ",
    "photo": ""
  }


]